{"tables":{"Tea_houses":{"pathToKey":{"WiFi":"WiFi","Owner":"Owner","Date_Opened":"Date_Opened","Customers":"Customers","GeoPoint":"GeoPoint","Hot":"Hot","Specialty_Type_id":"Specialty_Type_id","Name":"Name","House_id":"House_id","Region":"Region","Neighborhood":"Neighborhood","State":"State","Phone_Number":"Phone_Number","District":"District","Latitude":"Latitude","Longitude":"Longitude","Iced":"Iced","Visits":"Visits"},"pathToName":{"WiFi":"WiFi","Owner":"Owner","Date_Opened":"Date_Opened","Customers":"Customers","GeoPoint":"GeoPoint","Hot":"Hot","Specialty_Type_id":"Specialty_Type_id","Name":"Name","House_id":"House_id","Region":"Region","Neighborhood":"Neighborhood","State":"State","Phone_Number":"Phone_Number","District":"District","Latitude":"Latitude","Longitude":"Longitude","Iced":"Iced","Visits":"Visits"},"defaultListFile":"tables/Tea_houses/html/Tea_houses_list.html","defaultDetailFile":"tables/Tea_houses/html/Tea_houses_detail.html"},"Tea_types":{"pathToKey":{"Name":"Name","Fermented":"Fermented","Type_id":"Type_id","Origin":"Origin","Caffeinated":"Caffeinated"},"pathToName":{"Name":"Name","Fermented":"Fermented","Type_id":"Type_id","Origin":"Origin","Caffeinated":"Caffeinated"},"defaultListFile":"tables/Tea_types/html/Tea_types_list.html","defaultDetailFile":"tables/Tea_types/html/Tea_types_detail.html"},"Tea_inventory":{"pathToKey":{"Name":"Name","House_id":"House_id","Type_id":"Type_id","Loose_Leaf":"Loose_Leaf","Price_8oz":"Price_8oz","Cold":"Cold","Hot":"Hot","Price_16oz":"Price_16oz","Bags":"Bags","Price_12oz":"Price_12oz"},"pathToName":{"Name":"Name","House_id":"House_id","Type_id":"Type_id","Loose_Leaf":"Loose_Leaf","Price_8oz":"Price_8oz","Cold":"Cold","Hot":"Hot","Price_16oz":"Price_16oz","Bags":"Bags","Price_12oz":"Price_12oz"},"defaultListFile":"tables/Tea_inventory/html/Tea_inventory_list.html","defaultDetailFile":"tables/Tea_inventory/html/Tea_inventory_detail.html"},"Tea_houses_editable":{"pathToKey":{"WiFi":"WiFi","Owner":"Owner","Date_Opened":"Date_Opened","Customers":"Customers","GeoPoint":"GeoPoint","Hot":"Hot","Specialty_Type_id":"Specialty_Type_id","Name":"Name","House_id":"House_id","Region":"Region","Neighborhood":"Neighborhood","State":"State","Phone_Number":"Phone_Number","District":"District","Latitude":"Latitude","Longitude":"Longitude","Iced":"Iced","Visits":"Visits"},"pathToName":{"WiFi":"WiFi","Owner":"Owner","Date_Opened":"Date_Opened","Customers":"Customers","GeoPoint":"GeoPoint","Hot":"Hot","Specialty_Type_id":"Specialty_Type_id","Name":"Name","House_id":"House_id","Region":"Region","Neighborhood":"Neighborhood","State":"State","Phone_Number":"Phone_Number","District":"District","Latitude":"Latitude","Longitude":"Longitude","Iced":"Iced","Visits":"Visits"},"defaultListFile":"framework/tables/test/html/inputTests.html"}},"tableIdToDisplayName":{"Tea_houses":"Tea houses","Tea_types":"Tea types","Tea_inventory":"Tea inventory","Tea_houses_editable":"Tea houses editable"}}