{"data":[{"Owner":"Colonel Toppington","WiFi":"Yes","Customers":"1907","Date_Opened":"07/13/2009","GeoPoint":"10.20976 1.47962","Hot":"No","Specialty_Type_id":"1","House_id":"t3","Name":"Tibbins House on Kingsley","Neighborhood":"Capitol Hill","Region":"Cascadia","State":"Ulong","District":"Magdalene","Phone_Number":"5550981","Latitude":"10.20976","Longitude":"1.47962","Iced":"Yes","Visits":"10987"},{"Owner":"Miss Tealicious","WiFi":"Yes","Customers":"176","Date_Opened":"6/28/2010","GeoPoint":"10.304162 1.37962","Hot":"Yes","Specialty_Type_id":"1","House_id":"t2","Name":"Tea for All","Neighborhood":"Capitol Hill","Region":"Cascadia","State":"Ulong","District":"Magdalene","Phone_Number":"5558778","Latitude":"10.304162","Longitude":"1.37962","Iced":"Yes","Visits":"2762"},{"Owner":"David Serra","WiFi":"Yes","Customers":"887","Date_Opened":"6/28/2010","GeoPoint":"10.26794 0.95949","Hot":"Yes","Specialty_Type_id":"2","House_id":"t4","Name":"Green with Tea-envy","Neighborhood":"First Hill","Region":"Cascadia","State":"Ulong","District":"Magdalene","Phone_Number":"5558719","Latitude":"10.26794","Longitude":"0.95949","Iced":"Yes","Visits":"2710"},{"Owner":"Wendy Florent","WiFi":"No","Customers":"892","Date_Opened":"6/28/2010","GeoPoint":"10.177112 1.106208","Hot":"Yes","Specialty_Type_id":"2","House_id":"t5","Name":"Read the Leaves","Neighborhood":"First Hill","Region":"Cascadia","State":"Ulong","District":"Magdalene","Phone_Number":"5558171","Latitude":"10.177112","Longitude":"1.106208","Iced":"Yes","Visits":"9876"},{"Owner":"Brandon Stark","WiFi":"Yes","Customers":"123","Date_Opened":"6/28/2010","GeoPoint":"10.35259 1.10885","Hot":"No","Specialty_Type_id":"3","House_id":"t6","Name":"Trinity\u0027s Spies","Neighborhood":"University","Region":"Cascadia","State":"Ulong","District":"St John\u0027s","Phone_Number":"5553342","Latitude":"10.35259","Longitude":"1.10885","Iced":"Yes","Visits":"8196"},{"Owner":"Takeshi Kovacs","WiFi":"No","Customers":"198","Date_Opened":"6/28/2010","GeoPoint":"10.177112 1.106208","Hot":"Yes","Specialty_Type_id":"4","House_id":"t7","Name":"The Bridge of Sighs","Neighborhood":"University","Region":"Cascadia","State":"Ulong","District":"St John\u0027s","Phone_Number":"5554113","Latitude":"10.177112","Longitude":"1.106208","Iced":"Yes","Visits":"188"},{"Owner":"Rick Deckard","WiFi":"No","Customers":"768","Date_Opened":"6/28/2010","GeoPoint":"10.177112 1.106208","Hot":"Yes","Specialty_Type_id":"4","House_id":"t8","Name":"Kitchen Court","Neighborhood":"Fremont","Region":"Cascadia","State":"Ulong","District":"St John\u0027s","Phone_Number":"5559109","Latitude":"10.177112","Longitude":"1.106208","Iced":"No","Visits":"1719"},{"Owner":"Madame Bemford","WiFi":"No","Customers":"779","Date_Opened":"6/29/2010","GeoPoint":"10.502791 1.374374","Hot":"No","Specialty_Type_id":"1","House_id":"t1","Name":"The Buttery","Neighborhood":"Fremont","Region":"Cascadia","State":"Ulong","District":"St John\u0027s","Phone_Number":"5551134","Latitude":"10.502791","Longitude":"1.374374","Iced":"Yes","Visits":"8817"},{"Owner":"Willard Pewpew","WiFi":"Yes","Customers":"153","Date_Opened":"6/29/2010","GeoPoint":"10.487957 1.510158","Hot":"Yes","Specialty_Type_id":"2","House_id":"t9","Name":"Whipplesnaith","Neighborhood":"Fremont","Region":"Cascadia","State":"Ulong","District":"St John\u0027s","Phone_Number":"5558171","Latitude":"10.487957","Longitude":"1.510158","Iced":"Yes","Visits":"9873"},{"Owner":"Genevieve Twilly","WiFi":"Yes","Customers":"1139","Date_Opened":"6/29/2010","GeoPoint":"10.502791 1.374374","Hot":"Yes","Specialty_Type_id":"5","House_id":"t10","Name":"The Tower","Neighborhood":"University","Region":"Cascadia","State":"Ulong","District":"St John\u0027s","Phone_Number":"5558189","Latitude":"10.502791","Longitude":"1.374374","Iced":"No","Visits":"7866"}],"columnData":{"Owner":["Colonel Toppington","Miss Tealicious","David Serra","Wendy Florent","Brandon Stark","Takeshi Kovacs","Rick Deckard","Madame Bemford","Willard Pewpew","Genevieve Twilly"],"WiFi":["Yes","Yes","Yes","No","Yes","No","No","No","Yes","Yes"],"Customers":["1907","176","887","892","123","198","768","779","153","1139"],"Date_Opened":["07/13/2009","6/28/2010","6/28/2010","6/28/2010","6/28/2010","6/28/2010","6/28/2010","6/29/2010","6/29/2010","6/29/2010"],"GeoPoint":["10.20976 1.47962","10.304162 1.37962","10.26794 0.95949","10.177112 1.106208","10.35259 1.10885","10.177112 1.106208","10.177112 1.106208","10.502791 1.374374","10.487957 1.510158","10.502791 1.374374"],"Hot":["No","Yes","Yes","Yes","No","Yes","Yes","No","Yes","Yes"],"Specialty_Type_id":["1","1","2","2","3","4","4","1","2","5"],"House_id":["t3","t2","t4","t5","t6","t7","t8","t1","t9","t10"],"Name":["Tibbins House on Kingsley","Tea for All","Green with Tea-envy","Read the Leaves","Trinity\u0027s Spies","The Bridge of Sighs","Kitchen Court","The Buttery","Whipplesnaith","The Tower"],"Neighborhood":["Capitol Hill","Capitol Hill","First Hill","First Hill","University","University","Fremont","Fremont","Fremont","University"],"Region":["Cascadia","Cascadia","Cascadia","Cascadia","Cascadia","Cascadia","Cascadia","Cascadia","Cascadia","Cascadia"],"State":["Ulong","Ulong","Ulong","Ulong","Ulong","Ulong","Ulong","Ulong","Ulong","Ulong"],"District":["Magdalene","Magdalene","Magdalene","Magdalene","St John\u0027s","St John\u0027s","St John\u0027s","St John\u0027s","St John\u0027s","St John\u0027s"],"Phone_Number":["5550981","5558778","5558719","5558171","5553342","5554113","5559109","5551134","5558171","5558189"],"Latitude":["10.20976","10.304162","10.26794","10.177112","10.35259","10.177112","10.177112","10.502791","10.487957","10.502791"],"Longitude":["1.47962","1.37962","0.95949","1.106208","1.10885","1.106208","1.106208","1.374374","1.510158","1.374374"],"Iced":["Yes","Yes","Yes","Yes","Yes","Yes","No","Yes","Yes","No"],"Visits":["10987","2762","2710","9876","8196","188","1719","8817","9873","7866"]},"columns":{"WiFi":"None","Owner":"None","Date_Opened":"None","Customers":"None","GeoPoint":"None","Hot":"None","Specialty_Type_id":"None","Name":"None","House_id":"None","Region":"None","Neighborhood":"None","State":"None","Phone_Number":"None","District":"None","Latitude":"None","Longitude":"None","Iced":"None","Visits":"None"},"rowIds":["72c8186a-8141-4b06-a764-a9029c021b20","924e548d-667f-4c49-91c0-de2885c0dda1","1ed5404f-c501-4308-ac0f-a080c13ae5c4","f3ffa1ef-5534-499b-985d-356dc17e19fd","e432729c-36f6-47b7-92d0-ffa9d10f86ee","c21e672a-3e1b-46ae-a01b-8dbebbd4a5a4","a9694e80-d6a0-47ec-87da-d320bfbca9a2","12f37f54-708c-4a94-8a97-635d8527af52","195bf17b-8b65-444b-8e1a-75465a7bcfa8","33338f9f-998b-4efe-ae3a-c3ea1274e957"],"count":10,"tableId":"Tea_houses_editable","isGroupedBy":false}